{"meta":{"code":200,"requestId":"5f18063a5f54b45329b3543d"},"response":{"venues":[{"id":"4adcdaf2f964a5201e5c21e3","name":"Hötorgshallen","location":{"address":"Hötorget","lat":59.334496037778216,"lng":18.062354560230855,"labeledLatLngs":[{"label":"display","lat":59.334496037778216,"lng":18.062354560230855}],"postalCode":"111 57","cc":"SE","city":"Stockholm","state":"Stockholm","country":"Sweden","formattedAddress":["Hötorget","111 57 Stockholm","Sweden"]},"categories":[{"id":"4bf58dd8d48988d1fa941735","name":"Farmers Market","pluralName":"Farmers Markets","shortName":"Farmer's Market","icon":{"prefix":"https://ss3.4sqi.net/img/categories_v2/shops/food_farmersmarket_","suffix":".png"},"primary":true}],"referralId":"v-1595409998","hasPerk":false,"picture":"https://images.unsplash.com/photo-1567306295427-94503f8300d7?ixlib=rb-1.2.1&q=80&fm=jpg&crop=entropy&cs=tinysrgb&w=400&fit=max&ixid=eyJhcHBfaWQiOjE1MjUwN30"},{"id":"4adcdaf2f964a520105c21e3","name":"Vete-Katten","location":{"address":"Kungsgatan 55","crossStreet":"Klara Norra Kyrkogata","lat":59.33417768875955,"lng":18.05823909702743,"labeledLatLngs":[{"label":"display","lat":59.33417768875955,"lng":18.05823909702743}],"postalCode":"111 22","cc":"SE","city":"Stockholm","state":"Stockholm","country":"Sweden","formattedAddress":["Kungsgatan 55 (Klara Norra Kyrkogata)","111 22 Stockholm","Sweden"]},"categories":[{"id":"4bf58dd8d48988d16d941735","name":"Café","pluralName":"Cafés","shortName":"Café","icon":{"prefix":"https://ss3.4sqi.net/img/categories_v2/food/cafe_","suffix":".png"},"primary":true}],"referralId":"v-1595409998","hasPerk":false,"picture":"https://images.unsplash.com/photo-1523475472560-d2df97ec485c?ixlib=rb-1.2.1&q=80&fm=jpg&crop=entropy&cs=tinysrgb&w=400&fit=max&ixid=eyJhcHBfaWQiOjE1MjUwN30"},{"id":"5ad4d30ae0c0c95f1ec081ac","name":"BaP - Burgers and Pastrami","location":{"address":"Linnégatan 38","lat":59.33680479159396,"lng":18.08230447547515,"labeledLatLngs":[{"label":"display","lat":59.33680479159396,"lng":18.08230447547515}],"postalCode":"114 47","cc":"SE","neighborhood":"Östermalm","city":"Stockholm","state":"Stockholm","country":"Sweden","formattedAddress":["Linnégatan 38","114 47 Stockholm","Sweden"]},"categories":[{"id":"4bf58dd8d48988d14e941735","name":"American Restaurant","pluralName":"American Restaurants","shortName":"American","icon":{"prefix":"https://ss3.4sqi.net/img/categories_v2/food/default_","suffix":".png"},"primary":true}],"referralId":"v-1595409998","hasPerk":false,"picture":"https://images.unsplash.com/photo-1575395311793-ad870d50fbd1?ixlib=rb-1.2.1&q=80&fm=jpg&crop=entropy&cs=tinysrgb&w=400&fit=max&ixid=eyJhcHBfaWQiOjE1MjUwN30"},{"id":"4bc5ea99424195219f39031d","name":"Carlhälls Gård","location":{"address":"Långholmen","lat":59.32183215989309,"lng":18.017308028934774,"labeledLatLngs":[{"label":"display","lat":59.32183215989309,"lng":18.017308028934774}],"cc":"SE","city":"Stockholm","state":"Stockholm","country":"Sweden","formattedAddress":["Långholmen","Stockholm","Sweden"]},"categories":[{"id":"4bf58dd8d48988d171941735","name":"Event Space","pluralName":"Event Spaces","shortName":"Event Space","icon":{"prefix":"https://ss3.4sqi.net/img/categories_v2/building/eventspace_","suffix":".png"},"primary":true}],"referralId":"v-1595409998","hasPerk":false,"picture":"https://images.unsplash.com/photo-1503721827581-14e4c8676769?ixlib=rb-1.2.1&q=80&fm=jpg&crop=entropy&cs=tinysrgb&w=400&fit=max&ixid=eyJhcHBfaWQiOjE1MjUwN30"},{"id":"5b6dbc356bdee6002c7e205e","name":"Deniz Place","location":{"address":"Blockvägen 15","lat":59.189434,"lng":17.830875,"labeledLatLngs":[{"label":"display","lat":59.189434,"lng":17.830875}],"postalCode":"147 54","cc":"SE","city":"Botkyrka","state":"Stockholm","country":"Sweden","formattedAddress":["Blockvägen 15","147 54 Botkyrka","Sweden"]},"categories":[{"id":"4bf58dd8d48988d151941735","name":"Taco Place","pluralName":"Taco Places","shortName":"Tacos","icon":{"prefix":"https://ss3.4sqi.net/img/categories_v2/food/taco_","suffix":".png"},"primary":true}],"referralId":"v-1595409998","hasPerk":false,"picture":"https://images.unsplash.com/photo-1568106690101-fd6822e876f6?ixlib=rb-1.2.1&q=80&fm=jpg&crop=entropy&cs=tinysrgb&w=400&fit=max&ixid=eyJhcHBfaWQiOjE1MjUwN30"},{"id":"5f0409d11bb40b7f6a1eb418","name":"Ön","location":{"address":"Karlshällsvägen 14","lat":59.321896,"lng":18.017837,"labeledLatLngs":[{"label":"display","lat":59.321896,"lng":18.017837}],"postalCode":"117 33","cc":"SE","city":"Stockholm","state":"Stockholm","country":"Sweden","formattedAddress":["Karlshällsvägen 14","117 33 Stockholm","Sweden"]},"categories":[{"id":"4bf58dd8d48988d1c4941735","name":"Restaurant","pluralName":"Restaurants","shortName":"Restaurant","icon":{"prefix":"https://ss3.4sqi.net/img/categories_v2/food/default_","suffix":".png"},"primary":true}],"referralId":"v-1595409998","hasPerk":false,"picture":"https://images.unsplash.com/photo-1555396273-367ea4eb4db5?ixlib=rb-1.2.1&q=80&fm=jpg&crop=entropy&cs=tinysrgb&w=400&fit=max&ixid=eyJhcHBfaWQiOjE1MjUwN30"},{"id":"5dd91a1f15b2280008674fd4","name":"Stigbergets Fot","location":{"address":"Götgatan 5","lat":59.3184594862526,"lng":18.071313500404358,"labeledLatLngs":[{"label":"display","lat":59.3184594862526,"lng":18.071313500404358}],"postalCode":"116 46","cc":"SE","neighborhood":"Östra Katarina","city":"Stockholm","state":"Stockholm","country":"Sweden","formattedAddress":["Götgatan 5","116 46 Stockholm","Sweden"]},"categories":[{"id":"56aa371ce4b08b9a8d57356c","name":"Beer Bar","pluralName":"Beer Bars","shortName":"Beer Bar","icon":{"prefix":"https://ss3.4sqi.net/img/categories_v2/nightlife/pub_","suffix":".png"},"primary":true}],"referralId":"v-1595409998","hasPerk":false,"picture":"https://images.unsplash.com/photo-1514933651103-005eec06c04b?ixlib=rb-1.2.1&q=80&fm=jpg&crop=entropy&cs=tinysrgb&w=400&fit=max&ixid=eyJhcHBfaWQiOjE1MjUwN30"},{"id":"5f0c5ffd67564371a926b384","name":"Stråket 117","location":{"address":"Råsundavägen 117","lat":59.364943,"lng":17.994047,"labeledLatLngs":[{"label":"display","lat":59.364943,"lng":17.994047}],"postalCode":"169 50","cc":"SE","city":"Solna","state":"Stockholm","country":"Sweden","formattedAddress":["Råsundavägen 117","169 50 Solna","Sweden"]},"categories":[{"id":"4bf58dd8d48988d1c9941735","name":"Ice Cream Shop","pluralName":"Ice Cream Shops","shortName":"Ice Cream","icon":{"prefix":"https://ss3.4sqi.net/img/categories_v2/food/icecream_","suffix":".png"},"primary":true}],"referralId":"v-1595409998","hasPerk":false,"picture":"https://images.unsplash.com/photo-1582540037076-1f353ec55976?ixlib=rb-1.2.1&q=80&fm=jpg&crop=entropy&cs=tinysrgb&w=400&fit=max&ixid=eyJhcHBfaWQiOjE1MjUwN30"},{"id":"5f0c5d83d2102511cad21759","name":"Espresso House","location":{"address":"Järnagatan","lat":59.1947,"lng":17.627922,"labeledLatLngs":[{"label":"display","lat":59.1947,"lng":17.627922}],"postalCode":"151 72","cc":"SE","city":"Södertälje","state":"Stockholm","country":"Sweden","formattedAddress":["Järnagatan","151 72 Södertälje","Sweden"]},"categories":[{"id":"4bf58dd8d48988d1e0931735","name":"Coffee Shop","pluralName":"Coffee Shops","shortName":"Coffee Shop","icon":{"prefix":"https://ss3.4sqi.net/img/categories_v2/food/coffeeshop_","suffix":".png"},"primary":true}],"referralId":"v-1595409998","hasPerk":false,"picture":"https://images.unsplash.com/photo-1463797221720-6b07e6426c24?ixlib=rb-1.2.1&q=80&fm=jpg&crop=entropy&cs=tinysrgb&w=400&fit=max&ixid=eyJhcHBfaWQiOjE1MjUwN30"},{"id":"4c19f2f9838020a17270e661","name":"Orangeriet","location":{"address":"Norr Mälarstrand Kajplats 464","lat":59.32644673376238,"lng":18.04396431329224,"labeledLatLngs":[{"label":"display","lat":59.32644673376238,"lng":18.04396431329224}],"postalCode":"112 20","cc":"SE","neighborhood":"Kungsholmen","city":"Stockholm","state":"Stockholm","country":"Sweden","formattedAddress":["Norr Mälarstrand Kajplats 464","112 20 Stockholm","Sweden"]},"categories":[{"id":"4bf58dd8d48988d110941735","name":"Italian Restaurant","pluralName":"Italian Restaurants","shortName":"Italian","icon":{"prefix":"https://ss3.4sqi.net/img/categories_v2/food/italian_","suffix":".png"},"primary":true}],"referralId":"v-1595409998","hasPerk":false,"picture":"https://images.unsplash.com/photo-1568072954488-bff1c4db0956?ixlib=rb-1.2.1&q=80&fm=jpg&crop=entropy&cs=tinysrgb&w=400&fit=max&ixid=eyJhcHBfaWQiOjE1MjUwN30"},{"id":"4c1c92b7b9f876b0fa227c46","name":"Lundbergs Konditori","location":{"address":"Sjöbjörnsvägen 2","crossStreet":"Gröndalsvägen","lat":59.31597129999999,"lng":18.010374800000022,"labeledLatLngs":[{"label":"display","lat":59.31597129999999,"lng":18.010374800000022}],"postalCode":"117 67","cc":"SE","city":"Stockholm","state":"Stockholm","country":"Sweden","formattedAddress":["Sjöbjörnsvägen 2 (Gröndalsvägen)","117 67 Stockholm","Sweden"]},"categories":[{"id":"4bf58dd8d48988d16a941735","name":"Bakery","pluralName":"Bakeries","shortName":"Bakery","icon":{"prefix":"https://ss3.4sqi.net/img/categories_v2/food/bakery_","suffix":".png"},"primary":true}],"referralId":"v-1595409998","hasPerk":false,"picture":"https://images.unsplash.com/photo-1477763858572-cda7deaa9bc5?ixlib=rb-1.2.1&q=80&fm=jpg&crop=entropy&cs=tinysrgb&w=400&fit=max&ixid=eyJhcHBfaWQiOjE1MjUwN30"},{"id":"4b56e9e5f964a520111f28e3","name":"McDonald's","location":{"address":"Sankt Eriksgatan 32","lat":59.333579278575414,"lng":18.032058741768502,"labeledLatLngs":[{"label":"display","lat":59.333579278575414,"lng":18.032058741768502}],"postalCode":"112 34","cc":"SE","city":"Stockholm","state":"Stockholm","country":"Sweden","formattedAddress":["Sankt Eriksgatan 32","112 34 Stockholm","Sweden"]},"categories":[{"id":"4bf58dd8d48988d16e941735","name":"Fast Food Restaurant","pluralName":"Fast Food Restaurants","shortName":"Fast Food","icon":{"prefix":"https://ss3.4sqi.net/img/categories_v2/food/fastfood_","suffix":".png"},"primary":true}],"referralId":"v-1595409998","hasPerk":false,"picture":"https://images.unsplash.com/flagged/photo-1554409321-b4b2c79dcdc8?ixlib=rb-1.2.1&q=80&fm=jpg&crop=entropy&cs=tinysrgb&w=400&fit=max&ixid=eyJhcHBfaWQiOjE1MjUwN30"},{"id":"4b025696f964a520614822e3","name":"Johan & Nyström","location":{"address":"Swedenborgsgatan 7","crossStreet":"Maria Prästgårdsgata","lat":59.316273,"lng":18.064016,"labeledLatLngs":[{"label":"display","lat":59.316273,"lng":18.064016}],"postalCode":"118 48","cc":"SE","city":"Stockholm","state":"Stockholm","country":"Sweden","formattedAddress":["Swedenborgsgatan 7 (Maria Prästgårdsgata)","118 48 Stockholm","Sweden"]},"categories":[{"id":"4bf58dd8d48988d1e0931735","name":"Coffee Shop","pluralName":"Coffee Shops","shortName":"Coffee Shop","icon":{"prefix":"https://ss3.4sqi.net/img/categories_v2/food/coffeeshop_","suffix":".png"},"primary":true}],"referralId":"v-1595409998","hasPerk":false,"picture":"https://images.unsplash.com/photo-1463797221720-6b07e6426c24?ixlib=rb-1.2.1&q=80&fm=jpg&crop=entropy&cs=tinysrgb&w=400&fit=max&ixid=eyJhcHBfaWQiOjE1MjUwN30"},{"id":"4af451d9f964a52047f121e3","name":"Urban Deli","location":{"address":"Nytorget 4","crossStreet":"Skånegatan","lat":59.31241,"lng":18.082578,"labeledLatLngs":[{"label":"display","lat":59.31241,"lng":18.082578}],"postalCode":"116 40","cc":"SE","city":"Stockholm","state":"Stockholm","country":"Sweden","formattedAddress":["Nytorget 4 (Skånegatan)","116 40 Stockholm","Sweden"]},"categories":[{"id":"4bf58dd8d48988d146941735","name":"Deli / Bodega","pluralName":"Delis / Bodegas","shortName":"Deli / Bodega","icon":{"prefix":"https://ss3.4sqi.net/img/categories_v2/food/deli_","suffix":".png"},"primary":true}],"referralId":"v-1595409998","hasPerk":false,"picture":"https://images.unsplash.com/photo-1567931177292-62e4009754de?ixlib=rb-1.2.1&q=80&fm=jpg&crop=entropy&cs=tinysrgb&w=400&fit=max&ixid=eyJhcHBfaWQiOjE1MjUwN30"},{"id":"4adcdaf1f964a520a15b21e3","name":"Vapiano","location":{"address":"Munkbrogatan 8","lat":59.323394635149484,"lng":18.068070469053566,"labeledLatLngs":[{"label":"display","lat":59.323394635149484,"lng":18.068070469053566}],"postalCode":"114 27","cc":"SE","city":"Stockholm","state":"Stockholm","country":"Sweden","formattedAddress":["Munkbrogatan 8","114 27 Stockholm","Sweden"]},"categories":[{"id":"4bf58dd8d48988d110941735","name":"Italian Restaurant","pluralName":"Italian Restaurants","shortName":"Italian","icon":{"prefix":"https://ss3.4sqi.net/img/categories_v2/food/italian_","suffix":".png"},"primary":true}],"referralId":"v-1595409998","hasPerk":false,"picture":"https://images.unsplash.com/photo-1568072954488-bff1c4db0956?ixlib=rb-1.2.1&q=80&fm=jpg&crop=entropy&cs=tinysrgb&w=400&fit=max&ixid=eyJhcHBfaWQiOjE1MjUwN30"},{"id":"4bdadc902a3a0f471547acb6","name":"Vintervikens Trädgårdskafé","location":{"address":"Vinterviksvägen 30","lat":59.311146,"lng":17.999018,"labeledLatLngs":[{"label":"display","lat":59.311146,"lng":17.999018}],"postalCode":"117 65","cc":"SE","city":"Stockholm","state":"Stockholm","country":"Sweden","formattedAddress":["Vinterviksvägen 30","117 65 Stockholm","Sweden"]},"categories":[{"id":"4bf58dd8d48988d16d941735","name":"Café","pluralName":"Cafés","shortName":"Café","icon":{"prefix":"https://ss3.4sqi.net/img/categories_v2/food/cafe_","suffix":".png"},"primary":true}],"referralId":"v-1595409998","hasPerk":false,"picture":"https://images.unsplash.com/photo-1523475472560-d2df97ec485c?ixlib=rb-1.2.1&q=80&fm=jpg&crop=entropy&cs=tinysrgb&w=400&fit=max&ixid=eyJhcHBfaWQiOjE1MjUwN30"},{"id":"4c49b0669f2ad13ae72ba353","name":"Oliver Twist","location":{"address":"Repslagargatan 6","crossStreet":"Sankt Paulsgatan","lat":59.31828200379404,"lng":18.070002270982556,"labeledLatLngs":[{"label":"display","lat":59.31828200379404,"lng":18.070002270982556}],"postalCode":"118 46","cc":"SE","city":"Stockholm","state":"Stockholm","country":"Sweden","formattedAddress":["Repslagargatan 6 (Sankt Paulsgatan)","118 46 Stockholm","Sweden"]},"categories":[{"id":"4bf58dd8d48988d11b941735","name":"Pub","pluralName":"Pubs","shortName":"Pub","icon":{"prefix":"https://ss3.4sqi.net/img/categories_v2/nightlife/pub_","suffix":".png"},"primary":true}],"referralId":"v-1595409998","hasPerk":false,"picture":"https://images.unsplash.com/photo-1514933651103-005eec06c04b?ixlib=rb-1.2.1&q=80&fm=jpg&crop=entropy&cs=tinysrgb&w=400&fit=max&ixid=eyJhcHBfaWQiOjE1MjUwN30"},{"id":"4adcdae8f964a520395921e3","name":"Grand Hôtel Stockholm","location":{"address":"Södra Blasieholmshamnen 8","crossStreet":"Stallgatan","lat":59.32936396617763,"lng":18.075391798800283,"labeledLatLngs":[{"label":"display","lat":59.32936396617763,"lng":18.075391798800283}],"postalCode":"SE 103 27","cc":"SE","city":"Stockholm","state":"Stockholm","country":"Sweden","formattedAddress":["Södra Blasieholmshamnen 8 (Stallgatan)","SE 103 27 Stockholm","Sweden"]},"categories":[{"id":"4bf58dd8d48988d1fa931735","name":"Hotel","pluralName":"Hotels","shortName":"Hotel","icon":{"prefix":"https://ss3.4sqi.net/img/categories_v2/travel/hotel_","suffix":".png"},"primary":true}],"venuePage":{"id":"83202795"},"referralId":"v-1595409998","hasPerk":false,"picture":"https://images.unsplash.com/photo-1590074072786-a66914d668f1?ixlib=rb-1.2.1&q=80&fm=jpg&crop=entropy&cs=tinysrgb&w=400&fit=max&ixid=eyJhcHBfaWQiOjE1MjUwN30"},{"id":"4bb7282bef159c7406db76f7","name":"Mälarpaviljongen","location":{"address":"Norr Mälarstrand 64","crossStreet":"Polhemsgatan","lat":59.32728692193347,"lng":18.034185906691427,"labeledLatLngs":[{"label":"display","lat":59.32728692193347,"lng":18.034185906691427}],"postalCode":"112 35","cc":"SE","city":"Stockholm","state":"Stockholm","country":"Sweden","formattedAddress":["Norr Mälarstrand 64 (Polhemsgatan)","112 35 Stockholm","Sweden"]},"categories":[{"id":"4bf58dd8d48988d1c4941735","name":"Restaurant","pluralName":"Restaurants","shortName":"Restaurant","icon":{"prefix":"https://ss3.4sqi.net/img/categories_v2/food/default_","suffix":".png"},"primary":true}],"referralId":"v-1595409998","hasPerk":false,"picture":"https://images.unsplash.com/photo-1555396273-367ea4eb4db5?ixlib=rb-1.2.1&q=80&fm=jpg&crop=entropy&cs=tinysrgb&w=400&fit=max&ixid=eyJhcHBfaWQiOjE1MjUwN30"},{"id":"553910af498eb49be07acdbe","name":"Biltema","location":{"address":"Nettovägen 2","lat":59.4096734,"lng":17.8454558,"labeledLatLngs":[{"label":"display","lat":59.4096734,"lng":17.8454558}],"postalCode":"175 41","cc":"SE","city":"Järfälla Kommun","state":"Stockholm","country":"Sweden","formattedAddress":["Nettovägen 2","175 41 Järfälla Kommun","Sweden"]},"categories":[{"id":"4bf58dd8d48988d1f6941735","name":"Department Store","pluralName":"Department Stores","shortName":"Department Store","icon":{"prefix":"https://ss3.4sqi.net/img/categories_v2/shops/departmentstore_","suffix":".png"},"primary":true}],"referralId":"v-1595409998","hasPerk":false,"picture":"https://images.unsplash.com/photo-1489209909448-8926a2640f1f?ixlib=rb-1.2.1&q=80&fm=jpg&crop=entropy&cs=tinysrgb&w=400&fit=max&ixid=eyJhcHBfaWQiOjE1MjUwN30"},{"id":"4f084e9be4b09d21f663e0ed","name":"Max Hamburgare","location":{"address":"Lissmavägen 24","lat":59.19985882725062,"lng":18.12896334914194,"labeledLatLngs":[{"label":"display","lat":59.19985882725062,"lng":18.12896334914194}],"postalCode":"142 91","cc":"SE","city":"Skogås","state":"Stockholm","country":"Sweden","formattedAddress":["Lissmavägen 24","142 91 Skogås","Sweden"]},"categories":[{"id":"4bf58dd8d48988d1c4941735","name":"Restaurant","pluralName":"Restaurants","shortName":"Restaurant","icon":{"prefix":"https://ss3.4sqi.net/img/categories_v2/food/default_","suffix":".png"},"primary":true}],"referralId":"v-1595409998","hasPerk":false,"picture":"https://images.unsplash.com/photo-1555396273-367ea4eb4db5?ixlib=rb-1.2.1&q=80&fm=jpg&crop=entropy&cs=tinysrgb&w=400&fit=max&ixid=eyJhcHBfaWQiOjE1MjUwN30"},{"id":"4c2358b599282d7fb17768b0","name":"Café Princess","location":{"lat":59.36530806598608,"lng":18.133287565479712,"labeledLatLngs":[{"label":"display","lat":59.36530806598608,"lng":18.133287565479712}],"cc":"SE","city":"Lidingö","state":"Stockholm","country":"Sweden","formattedAddress":["Lidingö","Sweden"]},"categories":[{"id":"4bf58dd8d48988d1e0931735","name":"Coffee Shop","pluralName":"Coffee Shops","shortName":"Coffee Shop","icon":{"prefix":"https://ss3.4sqi.net/img/categories_v2/food/coffeeshop_","suffix":".png"},"primary":true}],"referralId":"v-1595409998","hasPerk":false,"picture":"https://images.unsplash.com/photo-1463797221720-6b07e6426c24?ixlib=rb-1.2.1&q=80&fm=jpg&crop=entropy&cs=tinysrgb&w=400&fit=max&ixid=eyJhcHBfaWQiOjE1MjUwN30"},{"id":"4b1a5e16f964a5205ce923e3","name":"McDonald's","location":{"address":"Hornsgatan 88","lat":59.3178099670531,"lng":18.05392703942041,"labeledLatLngs":[{"label":"display","lat":59.3178099670531,"lng":18.05392703942041}],"postalCode":"118 21","cc":"SE","city":"Stockholm","state":"Stockholm","country":"Sweden","formattedAddress":["Hornsgatan 88","118 21 Stockholm","Sweden"]},"categories":[{"id":"4bf58dd8d48988d16e941735","name":"Fast Food Restaurant","pluralName":"Fast Food Restaurants","shortName":"Fast Food","icon":{"prefix":"https://ss3.4sqi.net/img/categories_v2/food/fastfood_","suffix":".png"},"primary":true}],"referralId":"v-1595409998","hasPerk":false,"picture":"https://images.unsplash.com/flagged/photo-1554409321-b4b2c79dcdc8?ixlib=rb-1.2.1&q=80&fm=jpg&crop=entropy&cs=tinysrgb&w=400&fit=max&ixid=eyJhcHBfaWQiOjE1MjUwN30"},{"id":"4c5ac0e4d3aee21e81656b55","name":"Kajsas i Parken","location":{"address":"Stora Mejtens gränd","lat":59.31126107903301,"lng":18.091043549952467,"labeledLatLngs":[{"label":"display","lat":59.31126107903301,"lng":18.091043549952467}],"cc":"SE","neighborhood":"Södra Sofia, Södermalm","city":"Stockholm","state":"Stockholm","country":"Sweden","formattedAddress":["Stora Mejtens gränd","Stockholm","Sweden"]},"categories":[{"id":"4bf58dd8d48988d16d941735","name":"Café","pluralName":"Cafés","shortName":"Café","icon":{"prefix":"https://ss3.4sqi.net/img/categories_v2/food/cafe_","suffix":".png"},"primary":true}],"referralId":"v-1595409998","hasPerk":false,"picture":"https://images.unsplash.com/photo-1523475472560-d2df97ec485c?ixlib=rb-1.2.1&q=80&fm=jpg&crop=entropy&cs=tinysrgb&w=400&fit=max&ixid=eyJhcHBfaWQiOjE1MjUwN30"},{"id":"54f04f99498e311c661d5966","name":"Bar Central","location":{"address":"Birger Jarlsgatan 41","lat":59.33919974560295,"lng":18.06800335473217,"labeledLatLngs":[{"label":"display","lat":59.33919974560295,"lng":18.06800335473217}],"postalCode":"111 45","cc":"SE","city":"Stockholm","state":"Stockholm","country":"Sweden","formattedAddress":["Birger Jarlsgatan 41","111 45 Stockholm","Sweden"]},"categories":[{"id":"4bf58dd8d48988d109941735","name":"Eastern European Restaurant","pluralName":"Eastern European Restaurants","shortName":"Eastern European","icon":{"prefix":"https://ss3.4sqi.net/img/categories_v2/food/default_","suffix":".png"},"primary":true}],"referralId":"v-1595409998","hasPerk":false,"picture":"https://images.unsplash.com/photo-1532264523420-881a47db012d?ixlib=rb-1.2.1&q=80&fm=jpg&crop=entropy&cs=tinysrgb&w=400&fit=max&ixid=eyJhcHBfaWQiOjE1MjUwN30"},{"id":"4b7c2552f964a520e37f2fe3","name":"McDonald's","location":{"address":"Vikdalsvägen 43","lat":59.312765954959545,"lng":18.16115270302643,"labeledLatLngs":[{"label":"display","lat":59.312765954959545,"lng":18.16115270302643}],"postalCode":"131 40","cc":"SE","city":"Nacka","state":"Stockholm","country":"Sweden","formattedAddress":["Vikdalsvägen 43","131 40 Nacka","Sweden"]},"categories":[{"id":"4bf58dd8d48988d16e941735","name":"Fast Food Restaurant","pluralName":"Fast Food Restaurants","shortName":"Fast Food","icon":{"prefix":"https://ss3.4sqi.net/img/categories_v2/food/fastfood_","suffix":".png"},"primary":true}],"referralId":"v-1595409998","hasPerk":false,"picture":"https://images.unsplash.com/flagged/photo-1554409321-b4b2c79dcdc8?ixlib=rb-1.2.1&q=80&fm=jpg&crop=entropy&cs=tinysrgb&w=400&fit=max&ixid=eyJhcHBfaWQiOjE1MjUwN30"},{"id":"4adcdaebf964a520cf5921e3","name":"Akkurat","location":{"address":"Hornsgatan 18","lat":59.319809,"lng":18.06883,"labeledLatLngs":[{"label":"display","lat":59.319809,"lng":18.06883}],"postalCode":"118 20","cc":"SE","neighborhood":"Mariatorget","city":"Stockholm","state":"Stockholm","country":"Sweden","formattedAddress":["Hornsgatan 18","118 20 Stockholm","Sweden"]},"categories":[{"id":"4bf58dd8d48988d11b941735","name":"Pub","pluralName":"Pubs","shortName":"Pub","icon":{"prefix":"https://ss3.4sqi.net/img/categories_v2/nightlife/pub_","suffix":".png"},"primary":true}],"referralId":"v-1595409998","hasPerk":false,"picture":"https://images.unsplash.com/photo-1514933651103-005eec06c04b?ixlib=rb-1.2.1&q=80&fm=jpg&crop=entropy&cs=tinysrgb&w=400&fit=max&ixid=eyJhcHBfaWQiOjE1MjUwN30"},{"id":"54b67a81498ecfc4ba73cd88","name":"Omnipollos hatt","location":{"address":"Hökens Gata 3","lat":59.31800515272984,"lng":18.072142905395634,"labeledLatLngs":[{"label":"display","lat":59.31800515272984,"lng":18.072142905395634}],"cc":"SE","city":"Stockholm","state":"Stockholm","country":"Sweden","formattedAddress":["Hökens Gata 3","Stockholm","Sweden"]},"categories":[{"id":"56aa371ce4b08b9a8d57356c","name":"Beer Bar","pluralName":"Beer Bars","shortName":"Beer Bar","icon":{"prefix":"https://ss3.4sqi.net/img/categories_v2/nightlife/pub_","suffix":".png"},"primary":true}],"referralId":"v-1595409998","hasPerk":false,"picture":"https://images.unsplash.com/photo-1514933651103-005eec06c04b?ixlib=rb-1.2.1&q=80&fm=jpg&crop=entropy&cs=tinysrgb&w=400&fit=max&ixid=eyJhcHBfaWQiOjE1MjUwN30"},{"id":"57406eae498e565e20a69d1a","name":"Miss Behave Bar","location":{"address":"Tullhus 2","crossStreet":"Skeppsbrokajen","lat":59.323394342326786,"lng":18.075626258158294,"labeledLatLngs":[{"label":"display","lat":59.323394342326786,"lng":18.075626258158294}],"cc":"SE","city":"Stockholm","state":"Stockholm","country":"Sweden","formattedAddress":["Tullhus 2 (Skeppsbrokajen)","Stockholm","Sweden"]},"categories":[{"id":"4bf58dd8d48988d116941735","name":"Bar","pluralName":"Bars","shortName":"Bar","icon":{"prefix":"https://ss3.4sqi.net/img/categories_v2/nightlife/pub_","suffix":".png"},"primary":true}],"referralId":"v-1595409998","hasPerk":false,"picture":"https://images.unsplash.com/photo-1514933651103-005eec06c04b?ixlib=rb-1.2.1&q=80&fm=jpg&crop=entropy&cs=tinysrgb&w=400&fit=max&ixid=eyJhcHBfaWQiOjE1MjUwN30"},{"id":"4adcdaebf964a520bc5921e3","name":"Zum Franziskaner","location":{"address":"Skeppsbron 44","lat":59.32239068885575,"lng":18.074312289722304,"labeledLatLngs":[{"label":"display","lat":59.32239068885575,"lng":18.074312289722304}],"postalCode":"111 30","cc":"SE","neighborhood":"Storkyrkan","city":"Stockholm","state":"Stockholm","country":"Sweden","formattedAddress":["Skeppsbron 44","111 30 Stockholm","Sweden"]},"categories":[{"id":"4bf58dd8d48988d1c6941735","name":"Scandinavian Restaurant","pluralName":"Scandinavian Restaurants","shortName":"Scandinavian","icon":{"prefix":"https://ss3.4sqi.net/img/categories_v2/food/scandinavian_","suffix":".png"},"primary":true}],"referralId":"v-1595409998","hasPerk":false,"picture":"https://images.unsplash.com/photo-1456078003870-929d5986f0f5?ixlib=rb-1.2.1&q=80&fm=jpg&crop=entropy&cs=tinysrgb&w=400&fit=max&ixid=eyJhcHBfaWQiOjE1MjUwN30"}]}}